{
    "venues": [
        {
            "id": 1,
            "name": "Indira Gandhi Municipal Stadium",
            "sport_types": [
                "Cricket",
                "Football"
            ],
            "address": "MG Road, Vijayawada, Andhra Pradesh 520001",
            "latitude": 16.5138,
            "longitude": 80.6395,
            "rating": 4.3,
            "available_slots": 12,
            "distance_km": 1.1,
            "image_url": "placeholder_venue_1.png"
        },
        {
            "id": 2,
            "name": "Swarna Cricket Grounds",
            "sport_types": [
                "Cricket"
            ],
            "address": "Benz Circle, Vijayawada, Andhra Pradesh 520010",
            "latitude": 16.5204,
            "longitude": 80.6420,
            "rating": 4.1,
            "available_slots": 8,
            "distance_km": 1.8,
            "image_url": "placeholder_venue_2.png"
        },
        {
            "id": 3,
            "name": "APSRTC Indoor Stadium",
            "sport_types": [
                "Badminton",
                "Basketball"
            ],
            "address": "Pandit Nehru Bus Station Road, Vijayawada, Andhra Pradesh 520003",
            "latitude": 16.5102,
            "longitude": 80.6345,
            "rating": 4.0,
            "available_slots": 6,
            "distance_km": 1.5,
            "image_url": "placeholder_venue_3.png"
        },
        {
            "id": 4,
            "name": "Acharya Nagarjuna University Sports Grounds",
            "sport_types": [
                "Football",
                "Athletics track"
            ],
            "address": "Nagarjuna Nagar, Guntur, Andhra Pradesh 522510",
            "latitude": 16.3425,
            "longitude": 80.4582,
            "rating": 4.4,
            "available_slots": 15,
            "distance_km": 24.5,
            "image_url": "placeholder_venue_4.png"
        },
        {
            "id": 5,
            "name": "Andhra Tennis Academy",
            "sport_types": [
                "Tennis"
            ],
            "address": "Labbipet, Vijayawada, Andhra Pradesh 520010",
            "latitude": 16.5160,
            "longitude": 80.6495,
            "rating": 4.5,
            "available_slots": 4,
            "distance_km": 1.2,
            "image_url": "placeholder_venue_5.png"
        },
        {
            "id": 6,
            "name": "East Coast Beach Volleyball Arena",
            "sport_types": [
                "Volleyball"
            ],
            "address": "RK Beach Road, Visakhapatnam, Andhra Pradesh 530017",
            "latitude": 17.7119,
            "longitude": 83.2995,
            "rating": 4.2,
            "available_slots": 10,
            "distance_km": 350.0,
            "image_url": "placeholder_venue_6.png"
        },
        {
            "id": 7,
            "name": "Vijayawada Municipal Aquatic Centre",
            "sport_types": [
                "Swimming"
            ],
            "address": "Durga Temple Road, Vijayawada, Andhra Pradesh 520002",
            "latitude": 16.5035,
            "longitude": 80.6520,
            "rating": 3.8,
            "available_slots": 20,
            "distance_km": 0.6,
            "image_url": "placeholder_venue_7.png"
        },
        {
            "id": 8,
            "name": "Sports Authority of India Complex",
            "sport_types": [
                "Basketball",
                "Volleyball",
                "Badminton"
            ],
            "address": "Auto Nagar, Vijayawada, Andhra Pradesh 520007",
            "latitude": 16.4955,
            "longitude": 80.6385,
            "rating": 4.3,
            "available_slots": 18,
            "distance_km": 1.6,
            "image_url": "placeholder_venue_8.png"
        },
        {
            "id": 9,
            "name": "Vijayawada Badminton Centre",
            "sport_types": [
                "Badminton"
            ],
            "address": "Governorpet, Vijayawada, Andhra Pradesh 520002",
            "latitude": 16.5090,
            "longitude": 80.6460,
            "rating": 4.2,
            "available_slots": 7,
            "distance_km": 0.5,
            "image_url": "placeholder_venue_9.png"
        },
        {
            "id": 10,
            "name": "GM Cricket Grounds",
            "sport_types": [
                "Cricket"
            ],
            "address": "Brothers Colony, Patamata, Vijayawada, Andhra Pradesh 520008",
            "latitude": 16.4920,
            "longitude": 80.6680,
            "rating": 3.9,
            "available_slots": 14,
            "distance_km": 2.5,
            "image_url": "placeholder_venue_10.png"
        },
        {
            "id": 11,
            "name": "SNR Law College Football Ground",
            "sport_types": [
                "Football"
            ],
            "address": "Mogalrajapuram, Vijayawada, Andhra Pradesh 520010",
            "latitude": 16.5185,
            "longitude": 80.6565,
            "rating": 3.7,
            "available_slots": 11,
            "distance_km": 1.6,
            "image_url": "placeholder_venue_11.png"
        },
        {
            "id": 12,
            "name": "NTR Stadium",
            "sport_types": [
                "Tennis",
                "Athletics track"
            ],
            "address": "Vidyadharapuram, Vijayawada, Andhra Pradesh 520012",
            "latitude": 16.4850,
            "longitude": 80.6255,
            "rating": 4.1,
            "available_slots": 9,
            "distance_km": 3.1,
            "image_url": "placeholder_venue_12.png"
        },
        {
            "id": 13,
            "name": "Railway Recreation Club",
            "sport_types": [
                "Cricket",
                "Swimming"
            ],
            "address": "Railway Colony, Vijayawada, Andhra Pradesh 520001",
            "latitude": 16.5110,
            "longitude": 80.6300,
            "rating": 3.6,
            "available_slots": 5,
            "distance_km": 1.9,
            "image_url": "placeholder_venue_13.png"
        },
        {
            "id": 14,
            "name": "Andhra Loyola College Athletics Ground",
            "sport_types": [
                "Athletics track",
                "Football"
            ],
            "address": "Loyola College Road, Vijayawada, Andhra Pradesh 520008",
            "latitude": 16.4975,
            "longitude": 80.6595,
            "rating": 3.9,
            "available_slots": 22,
            "distance_km": 1.3,
            "image_url": "placeholder_venue_14.png"
        },
        {
            "id": 15,
            "name": "VGTM Urban Sports Park",
            "sport_types": [
                "Cricket",
                "Football",
                "Basketball",
                "Badminton",
                "Tennis",
                "Volleyball",
                "Swimming",
                "Athletics track"
            ],
            "address": "VGTM Layout, Ramavarappadu, Vijayawada, Andhra Pradesh 521108",
            "latitude": 16.5275,
            "longitude": 80.6710,
            "rating": 4.6,
            "available_slots": 30,
            "distance_km": 3.4,
            "image_url": "placeholder_venue_15.png"
        }
    ]
}